統一編號,公司名稱,公司地址,核准解散日期,Longitude,Latitude
92953,愛伴行科技股份有限公司,臺北市萬華區長沙街2段111之1號2樓,115/04/01,121.503648,25.040521
12202972,永聚企業有限公司,臺北市中山區南京東路1段25號9樓,115/04/01,121.524242,25.052357
24749110,花漾房有限公司,臺北市大安區忠孝東路4段162號10樓,115/04/01,121.550289,25.041284
27569842,鴻瀚有限公司,臺北市中山區中山北路2段99號8樓之2,115/04/01,121.523146,25.059601
31284657,科印企業有限公司,臺北市士林區重慶北路4段190巷5弄5號1樓,115/04/01,121.512016,25.085048
50793770,毛孩天堂花園有限公司,臺北市中正區重慶南路1段10號8樓之15,115/04/01,121.513136,25.046588
52857217,唯奇國際家居設計工坊有限公司,臺北市士林區忠誠路2段178巷5號,115/04/01,121.533229,25.11608
53328763,艾享創意有限公司,臺北市信義區信義路4段415號14樓之1,115/04/01,121.559235,25.033304
54322014,芙歆有限公司,臺北市信義區忠孝東路5段1之1號8樓,115/04/01,121.564864,25.041412
60680385,馨瀅企業有限公司,臺北市信義區基隆路1段35巷7弄2之1號,115/04/01,121.57049,25.04784
60787838,明峰資訊有限公司,臺北市中正區中山北路1段2號4樓之2,115/04/01,121.519469,25.046046
60796409,波波炸串有限公司,臺北市大同區錦西街89號1樓,115/04/01,121.515068,25.059692
89142426,莎希有限公司,臺北市大安區和平東路3段34號1樓,115/04/01,121.54749,25.0245
90140875,馳航國際有限公司,臺北市中正區南昌路1段49號6樓之1,115/04/01,121.517224,25.031375
90231191,垣品有限公司,臺北市松山區民生東路5段204號6樓之1,115/04/01,121.56477,25.058257
90551898,咖展有限公司,臺北市中山區南京西路1之1號10樓,115/04/01,121.521814,25.052534
90700406,艾大投資有限公司,臺北市南港區研究院路1段21號,115/04/01,121.616559,25.053958
91088118,夏日國際有限公司,臺北市士林區延平北路6段131之1號1樓,115/04/01,121.507886,25.088927
93546694,仰欣資本股份有限公司,臺北市中正區許昌街42號8樓,115/04/01,121.51546,25.045451
93680707,三順汽車租賃股份有限公司,臺北市內湖區民權東路6段180巷6號8樓之3,115/04/01,121.592648,25.068196
93714848,至富國際餐飲有限公司,臺北市中山區吉林路26巷21號1樓,115/04/01,121.529289,25.051523
96782072,忠喬有限公司,臺北市大安區大安路1段17號,115/04/01,121.546318,25.04453
187304,育森文化有限公司,臺北市大安區信義路4段279號11樓,115/04/02,121.554714,25.033344
16614449,煜橋有限公司,臺北市信義區忠孝東路5段1之1號13樓,115/04/02,121.564864,25.041412
24533998,富世德顧問企業股份有限公司,臺北市松山區南京東路4段50號4樓之3,115/04/02,121.553462,25.051447
25131129,泓宇企經有限公司,臺北市中正區和平西路1段57-1號,115/04/02,121.519803,25.026767
28463038,金鏵電腦計算有限公司,臺北市中山區長安西路6號7樓,115/04/02,121.521251,25.049824
28481090,福冠團膳有限公司,臺北市內湖區內湖路1段91巷18號1、2、3樓及20號1、2、3、4樓,115/04/02,121.561809,25.085096
28825855,智富地產開發有限公司,臺北市中山區中山北路3段53之1號2樓,115/04/02,121.522924,25.067786
42656872,力貝國際有限公司,臺北市內湖區新明路498巷14弄10號1樓,115/04/02,121.577341,25.053757
52438550,凱茂股份有限公司,臺北市內湖區瑞光路76巷65號6樓,115/04/02,121.580107,25.070028
53916381,翰那有限公司,臺北市中正區林森北路9巷18之1號1樓,115/04/02,121.524801,25.04548
54187896,瑞麒國際企業有限公司,臺北市萬華區中華路1段106號8樓,115/04/02,121.508392,25.043975
60416196,玨玨生醫有限公司,臺北市大安區安和路1段83號,115/04/02,121.55235,25.036581
70543766,霖山藝創水電有限公司,臺北市大同區大龍街46巷7號1樓,115/04/02,121.515603,25.064748
70547812,好事興實業有限公司,臺北市內湖區民權東路6段180巷6號5樓之5,115/04/02,121.592648,25.068196
82816988,后域之心國際有限公司,臺北市松山區復興北路191號13樓之1,115/04/02,121.544327,25.055244
83205676,日昇盛世不動產仲介有限公司,臺北市中山區八德路2段273號,115/04/02,121.541599,25.047115
83562527,麥子事業有限公司,臺北市北投區中央北路3段276巷4號1樓,115/04/02,121.479035,25.135864
83589259,珍家文創事業有限公司,臺北市大安區信義路4段263號5樓之4,115/04/02,121.554041,25.033362
84709648,逸遠堂國際股份有限公司,臺北市松山區敦化北路207號7樓之11,115/04/02,121.549488,25.05804
90647677,綠蜂農業科技有限公司,臺北市大同區重慶北路1段30號3樓,115/04/02,121.513555,25.050861
90656892,綻放食艷室有限公司,臺北市南港區向陽路258巷15號11樓,115/04/02,121.593019,25.058395
90878825,茫珠餐飲有限公司,臺北市大安區文昌街241號2樓,115/04/02,121.555252,25.032382
118551,液界科技股份有限公司,臺北市中正區忠孝西路1段39號7樓,115/04/07,121.51858,25.046119
11777767,達人貿易股份有限公司,臺北市中山區南京東路3段200號6樓,115/04/07,121.543074,25.051677
12462982,帝能企業有限公司,臺北市中山區錦州街385號2樓,115/04/07,121.54106,25.060328
24312539,安富樂企業有限公司,臺北市大同區延平北路2段143號8樓,115/04/07,121.511618,25.057862
24486340,兼耐國際科技股份有限公司,臺北市大安區麗水街13巷16號4樓,115/04/07,121.529315,25.030097
27338168,鵬誼有限公司,臺北市中山區長春路366號4樓之1,115/04/07,121.542608,25.054472
27728145,順天國際有限公司,臺北市大安區復興南路1段103號4樓之8,115/04/07,121.544057,25.043721
50778201,歐華商拓有限公司,臺北市松山區復興北路57號12樓之2,115/04/07,121.544229,25.050474
52612987,貝琪梨藝創有限公司,臺北市中正區徐州路38號2樓,115/04/07,121.523704,25.040543
60606843,彭氏國際資產管理有限公司,臺北市中正區忠孝西路1段80號21樓,115/04/07,121.513766,25.046866
83382356,康欣雲陽有限公司,臺北市大安區羅斯福路3段29號6樓,115/04/07,121.525237,25.023665
85027894,富立茲國際股份有限公司,臺北市松山區寶清街31號8樓,115/04/07,121.568808,25.050497
90326921,豐順盛股份有限公司,臺北市大同區長安西路301號1樓,115/04/07,121.507882,25.052295
91017965,易陽喜樂股份有限公司,臺北市士林區士東路266巷11弄11號1樓,115/04/07,121.53727,25.111941
94142875,領杉有限公司,臺北市士林區延平北路6段352號5樓,115/04/07,121.501216,25.090748
96819850,藍圖生技股份有限公司,臺北市中山區德惠街20號8樓,115/04/07,121.525221,25.066585
97445134,萊展國際有限公司,臺北市文山區景興路123號2樓,115/04/07,121.544809,24.9946
97516691,豪氣貿易有限公司,臺北市中正區忠孝東路1段152號11樓之6,115/04/07,121.52592,25.04398
166321,銀鐵魄遊戲有限公司,臺北市信義區光復南路495號4樓,115/04/08,121.557885,25.03246
195563,黑海國際有限公司,臺北市大同區承德路3段58號5樓之4,115/04/08,121.518094,25.0652
216194,蔚宇貿易有限公司,臺北市信義區忠孝東路5段482號15樓之4,115/04/08,121.577997,25.040597
249596,維互動網絡科技股份有限公司,臺北市士林區後港街147號,115/04/08,121.521514,25.087036
16750252,功典資訊股份有限公司,臺北市大安區敦化南路2段97號25樓,115/04/08,121.549184,25.028912
22037109,創意力文化事業有限公司,臺北市大安區大安路1段106巷19號1樓,115/04/08,121.544715,25.040337
22337838,豪龍食品有限公司,臺北市中山區南京西路1之1號11樓,115/04/08,121.521814,25.052534
35041908,大德企業股份有限公司,臺北市大安區仁愛路3段26號8樓,115/04/08,121.535746,25.037648
42620495,迅狼有限公司,臺北市中山區長春路267號4樓之1,115/04/08,121.541113,25.054765
43925299,顯達行銷顧問有限公司,臺北市大安區忠孝東路4段320號2樓,115/04/08,121.557056,25.041136
43940236,聚福緣企業有限公司,臺北市士林區士東路238號5樓,115/04/08,121.535075,25.112784
45191243,龍軒文教股份有限公司,臺北市中山區長春路328號8樓之1,115/04/08,121.540936,25.05453
53338925,奇奕創意娛樂有限公司,臺北市內湖區文德路100號9樓之5,115/04/08,121.582809,25.078312
53567320,盟策創意整合有限公司,臺北市內湖區民權東路6段191巷26號,115/04/08,121.597938,25.068424
60515169,源成實業有限公司,臺北市大安區仁愛路3段26號5樓,115/04/08,121.535746,25.037648
80416254,嘉軒國際實業有限公司,臺北市中山區明水路696號5樓之6,115/04/08,121.551227,25.084547
80670543,謙勝國際實業有限公司,臺北市大安區敦化南路2段97號2樓,115/04/08,121.549184,25.028912
83041626,莉雅有限公司,臺北市大安區羅斯福路2段79之1號12樓之4,115/04/08,121.523509,25.025963
83074626,阿爾伊股份有限公司,臺北市內湖區瑞光路168號9樓,115/04/08,121.57865,25.07391
83468847,關心醫點股份有限公司,臺北市中正區青島東路4之8號1樓,115/04/08,121.521652,25.043623
85000945,百感有限公司,臺北市中山區民生東路2段143號8樓,115/04/08,121.534548,25.05815
86733405,宇尊貿易有限公司,臺北市中山區長春路267號4樓之1,115/04/08,121.541113,25.054765
90143198,梵蒂卡有限公司,臺北市北投區光明路2巷25號1樓,115/04/08,121.499954,25.13099
90350301,達數網資訊有限公司,臺北市大同區重慶北路3段80號2樓,115/04/08,121.513445,25.06622
90517554,宏承創新行銷有限公司,臺北市中山區松江路206號3樓,115/04/08,121.532906,25.057535
91045955,響想貿易有限公司,臺北市松山區南京東路5段251巷24弄16號7樓,115/04/08,121.564546,25.052568
93521342,拾珊彩國際有限公司,臺北市萬華區中華路1段192號9樓,115/04/08,121.50688,25.038761
94002467,柒門國際股份有限公司,臺北市大同區長安西路106號5樓之2,115/04/08,121.51858,25.050439
94003472,鑫慧環保科技有限公司,臺北市中正區忠孝西路1段50號21樓之22,115/04/08,121.515823,25.046303
94010488,巳月股份有限公司,臺北市信義區光復南路505號9樓之2,115/04/08,121.557621,25.031997
97556433,芳莘有限公司,臺北市大安區忠孝東路4段177號13樓之1,115/04/08,121.550647,25.041698
99997077,恩領通有限公司,臺北市中山區南京東路2段172號6樓,115/04/08,121.534673,25.051831
131576,人心筋肌骨健康有限公司,臺北市松山區復興南路1段49號地下樓,115/04/09,121.544085,25.045456
12667346,龍喜有限公司,臺北市信義區松山路643號4樓,115/04/09,121.578661,25.035909
14004549,欣欣玻璃股份有限公司,臺北市信義區和平東路3段315號10樓,115/04/09,121.555939,25.021419
23454073,志帆國際有限公司,臺北市松山區南京東路5段40號8樓之8,115/04/09,121.559659,25.051303
24744488,朔奧國際有限公司,臺北市大安區敦化南路1段238巷1號1樓,115/04/09,121.547985,25.040247
50794194,太霖設計顧問有限公司,臺北市大安區敦化南路1段188號5樓,115/04/09,121.548492,25.042684
52516936,天美互娛有限公司,臺北市中山區復興北路48號10樓之1,115/04/09,121.54376,25.049537
53102266,保立信實業有限公司,臺北市大安區羅斯福路3段283巷14弄16-1號,115/04/09,121.53264,25.017817
53102630,川興興業股份有限公司,臺北市中正區水源路109號15樓,115/04/09,121.518213,25.021401
53354298,慕翔國際有限公司,臺北市大同區承德路3段246號6樓,115/04/09,121.518731,25.072873
55623760,睿頫有限公司,臺北市中正區水源路47號7樓之1,115/04/09,121.523787,25.019489
55833421,成易國際顧問有限公司,臺北市大安區忠孝東路4段206之1號4樓,115/04/09,121.552462,25.041001
60539676,向浪國際有限公司,臺北市中山區南京東路2段150號7樓,115/04/09,121.534199,25.051833
60698759,金星國際管理顧問有限公司,臺北市松山區寶清街31號8樓,115/04/09,121.568808,25.050497
60703508,慶芯實業有限公司,臺北市中山區長安東路1段15號4樓,115/04/09,121.522748,25.049683
85012344,海億設計有限公司,臺北市萬華區武昌街2段132號7樓之9,115/04/09,121.502853,25.045573
90273396,顥豐環保科技有限公司,臺北市信義區基隆路1段163號3樓,115/04/09,121.565226,25.041751
90838373,紘福不動產經紀有限公司,臺北市中山區民生東路2段118號,115/04/09,121.531479,25.057838
93483810,海天新材料股份有限公司,臺北市大安區敦化南路2段99號32樓,115/04/09,121.549183,25.028808
93598881,順星有限公司,臺北市大安區信義路4段1號2樓,115/04/09,121.543915,25.033566
96779323,譜希思股份有限公司,臺北市大安區仁愛路3段127號4樓,115/04/09,121.542247,25.038288
97432617,宮川有限公司,臺北市大安區仁愛路4段345巷4弄1號1樓,115/04/09,121.553873,25.039041
97475740,南歌音樂製作有限公司,臺北市松山區南京東路5段108號13樓,115/04/09,121.562139,25.051248
42510,探索世界投資控股股份有限公司,臺北市松山區南京東路5段206號3樓之1,115/04/10,121.564916,25.051189
22465951,東揚實業股份有限公司,臺北市松山區南京東路5段6號5樓,115/04/10,121.558271,25.051342
24536382,燿暘國際股份有限公司,臺北市北投區珠海路28號2樓之1,115/04/10,121.502348,25.137702
42839562,旅刻文化有限公司,臺北市萬華區環河南路2段250巷25弄10號13樓,115/04/10,121.48978,25.033505
42840287,科萊博瑞科技有限公司,臺北市內湖區民權東路6段15巷41號2樓,115/04/10,121.577442,25.069054
50861616,緻金有限公司,臺北市大安區忠孝東路4段221號10樓,115/04/10,121.552577,25.041661
52675217,韋均有限公司,臺北市中正區忠孝東路1段152號12樓之5,115/04/10,121.52592,25.04398
52894536,柯賓漢數位金融科技有限公司,臺北市大安區忠孝東路3段54號2樓之1,115/04/10,121.535562,25.041727
55170703,樂軒酒業有限公司,臺北市中正區辛亥路1段41之1號1樓,115/04/10,121.528434,25.019528
55752948,瑞邦投資顧問有限公司,臺北市松山區南京東路3段287號11樓,115/04/10,121.546149,25.051998
80278203,登鹿實業有限公司,臺北市萬華區萬大路357號1樓,115/04/10,121.499902,25.023132
83502346,四三文化有限公司,臺北市內湖區民權東路6段180巷42弄13號11樓,115/04/10,121.592108,25.067587
90371523,藝點文化有限公司,臺北市中山區南京東路2段111號6樓,115/04/10,121.533382,25.052232
90492441,漂亮焦點有限公司,臺北市中山區中山北路2段162號6樓之1,115/04/10,121.522304,25.063213
90742068,好心肌有限公司,臺北市中正區羅斯福路2段14號2樓,115/04/10,121.520944,25.028739
90761986,德藝生活有限公司,臺北市松山區八德路3段81號7樓之7,115/04/10,121.553199,25.04831
90806386,亞皓國際貿易有限公司,臺北市中山區民生東路1段51號4樓,115/04/10,121.526242,25.058197
93497103,海洋之星有限公司,臺北市中山區松江路122號11樓,115/04/10,121.532814,25.052326
93776442,晶康國際有限公司,臺北市大同區重慶北路3段80號2樓,115/04/10,121.513445,25.06622
93790351,奧菲特互動科技有限公司,臺北市中正區南陽街24號2樓,115/04/10,121.516026,25.044362
93873802,小資時代股份有限公司,臺北市信義區忠孝東路5段1之1號9樓,115/04/10,121.564864,25.041412
96829392,畢幸顧問有限公司,臺北市松山區敦化南路1段5號5樓,115/04/10,121.549302,25.047065
114160,睏霸數位科技有限公司,臺北市信義區和平東路3段341巷49號1樓,115/04/13,121.558331,25.021588
178348,樂禾傳媒有限公司,臺北市松山區健康路152號3樓,115/04/13,121.557169,25.053405
24469763,亞洲羅曼有限公司,臺北市大安區復興南路1段137號11樓之3,115/04/13,121.544021,25.042386
24976873,林檎行國際有限公司,臺北市北投區大業路300巷23號1樓,115/04/13,121.499139,25.128408
28682300,長長來有限公司,臺北市萬華區廣州街78號,115/04/13,121.502796,25.036494
30856431,白明服飾有限公司,臺北市中山區中山北路3段25號1樓之50,115/04/13,121.522463,25.065325
42789107,愛因斯坦人工智慧股份有限公司,臺北市大安區忠孝東路3段211號5樓,115/04/13,121.539486,25.041864
50887073,富蘭克林國際投資有限公司,臺北市大安區安和路2段7號4樓,115/04/13,121.552632,25.032765
52493363,昕盛顧問有限公司,臺北市大安區忠孝東路4段221號10樓,115/04/13,121.552577,25.041661
52880548,台盈資訊科技有限公司,臺北市士林區後港街139號1樓,115/04/13,121.521674,25.086808
53207640,興盛利股份有限公司,臺北市松山區三民路3巷5號,115/04/13,121.563408,25.051973
53558477,捷菲爾建設股份有限公司,臺北市大安區羅斯福路3段125號10樓,115/04/13,121.526987,25.022017
54160691,鑫鼎兆豐建設股份有限公司,臺北市士林區天母西路58號2樓,115/04/13,121.524416,25.118448
54665664,貞婕投資有限公司,臺北市松山區民權東路3段142號5樓之2(603室),115/04/13,121.546856,25.061723
90156138,環澎二風能股份有限公司,臺北市大安區敦化南路2段99號32樓,115/04/13,121.549183,25.028808
90475251,浢浢數位股份有限公司,臺北市中山區新生北路2段68巷15號8樓之3,115/04/13,121.526148,25.05649
90534836,敏立恰吉有限公司,臺北市松山區南京東路4段50號11樓,115/04/13,121.553462,25.051447
93789360,褔祿薩有限公司,臺北市中正區仁愛路2段25號5樓,115/04/13,121.527305,25.038461
97532209,台灣紫華國際股份有限公司,臺北市中山區南京西路5之1號12樓,115/04/13,121.521373,25.052603
232259,登峰再生美學股份有限公司,臺北市中山區民生東路3段2號7樓,115/04/14,121.537441,25.057684
12959815,騏健國際運通股份有限公司,臺北市松山區基隆路1段10號14樓,115/04/14,121.569882,25.050678
16625473,齊毅實業有限公司,臺北市內湖區民權東路6段180巷6號8樓之1,115/04/14,121.592648,25.068196
24269884,傑思網有限公司,臺北市內湖區江南街117巷8弄19號3樓,115/04/14,121.577028,25.076242
24937041,鑫之禾建設股份有限公司,臺北市萬華區西園路2段200巷18號,115/04/14,121.495403,25.02914
27971422,開店網通有限公司,臺北市中山區復興北路348號7樓,115/04/14,121.543938,25.059971
27972604,上霓實業有限公司,臺北市松山區南京東路4段133巷6弄15號1樓,115/04/14,121.554551,25.052606
28183373,宜森有限公司,臺北市中正區愛國西路48巷2號1樓,115/04/14,121.507622,25.036645
42834877,郁峯科技有限公司,臺北市內湖區成功路4段210號2樓,115/04/14,121.595732,25.084485
52484441,史達數位科技有限公司,臺北市大同區南京西路76號5樓,115/04/14,121.518406,25.052949
52919488,台北光翼颯瀏特有限公司,臺北市中山區伊通街58號4樓,115/04/14,121.534655,25.05153
53537537,福斯國際保險代理人股份有限公司,臺北市南港區經貿二路111號16樓,115/04/14,121.617862,25.058568
53934748,華毅集成有限公司,臺北市大安區光復南路102號8樓,115/04/14,121.557481,25.043464
60385969,摘星科技有限公司,臺北市大安區羅斯福路三段301號9樓,115/04/14,121.531859,25.017447
60702682,瑞成康國際有限公司,臺北市大同區西寧北路87號之1,115/04/14,121.509097,25.056462
60703113,華豐上菜股份有限公司,臺北市大安區安和路1段27號15樓,115/04/14,121.550372,25.039169
60796317,利帆奇航水上娛樂有限公司,臺北市中正區忠孝東路1段152號11樓之6,115/04/14,121.52592,25.04398
90144703,集思智能股份有限公司,臺北市大安區復興南路2段237號13樓,115/04/14,121.54371,25.025846
90388088,宏宥超能科技股份有限公司,臺北市大安區信義路3段190之1號2樓,115/04/14,121.542845,25.033193
90495910,質崛說有限公司,臺北市信義區基隆路1段143號3樓之3,115/04/14,121.565797,25.042902
93614637,米涵有限公司,臺北市大安區安和路2段72號,115/04/14,121.551733,25.030107
93777483,起源科技有限公司,臺北市中山區民生東路3段29號11樓,115/04/14,121.538974,25.05805
94019158,創創志業有限公司,臺北市中山區南京東路2段132號8樓,115/04/14,121.533659,25.051838
95458766,一一一有限公司,臺北市信義區和平東路3段341巷49號1樓,115/04/14,121.558331,25.021588
4662,鑫閣有限公司,臺北市信義區基隆路1段143號11樓之3,115/04/15,121.565797,25.042902
20971094,聖達威有限公司,臺北市松山區北寧路66號4樓,115/04/15,121.55283,25.050879
23166827,貿川纖維有限公司,臺北市內湖區洲子街85號5樓之1,115/04/15,121.57065,25.080417
24778607,益大實業有限公司,臺北市大安區臥龍街284號3樓,115/04/15,121.558813,25.016883
27747678,禾盛昌工程有限公司,臺北市大安區忠孝東路3段305號6樓之1,115/04/15,121.543542,25.041886
28185674,飛馬資訊有限公司,臺北市中山區新生北路3段84巷35號3樓,115/04/15,121.52646,25.06754
42858758,真加奈有限公司,臺北市中山區伊通街58號4樓,115/04/15,121.534655,25.05153
50855332,仟晟貿易有限公司,臺北市信義區忠孝東路5段1-3號7樓,115/04/15,121.564905,25.041481
53122663,拉法創藝文化有限公司,臺北市中山區中山北路1段53巷11號2樓,115/04/15,121.522422,25.049201
53547177,郁禾貿易有限公司,臺北市松山區南京東路5段405號10樓之2,115/04/15,121.569798,25.051496
53762273,山野井有限公司,臺北市中山區伊通街58號4樓,115/04/15,121.534655,25.05153
54668536,我在影像製作有限公司,臺北市松山區延吉街48巷5號1樓,115/04/15,121.553417,25.044909
57093204,鑫暘能源股份有限公司,臺北市信義區松仁路97號17樓,115/04/15,121.568693,25.036078
66632533,義益溢國際網路有限公司,臺北市中正區忠孝西路1段50號22樓之6,115/04/15,121.515823,25.046303
80521903,沛永企業有限公司,臺北市松山區民生東路4段75巷5弄3號1樓,115/04/15,121.551102,25.058817
82871686,鍇利發貿易有限公司,臺北市內湖區大湖山莊街215號5樓,115/04/15,121.599988,25.088419
85040833,津園建設開發股份有限公司,臺北市信義區東興路49號11樓,115/04/15,121.566839,25.04804
90100711,尊皇娛樂有限公司,臺北市中正區忠孝東路1段152號12樓之5,115/04/15,121.52592,25.04398
90469785,酣甜醇品有限公司,臺北市大同區鄭州路55號3樓,115/04/15,121.513099,25.049742
90476152,車車好夥伴股份有限公司,臺北市松山區八德路3段2號6樓之1,115/04/15,121.549295,25.04786
90627996,愛爾富管理顧問有限公司,臺北市中山區新生北路2段127巷18號1樓,115/04/15,121.52918,25.059721
90718530,科原創意股份有限公司,臺北市南港區研究院路2段98巷21弄5號,115/04/15,121.615298,25.044108
93369254,立昇昌實業股份有限公司,臺北市中山區長安東路2段178號4樓,115/04/15,121.540584,25.048217
93497687,指針匯股份有限公司,臺北市中山區長安東路2段189號8樓之11,115/04/15,121.542773,25.04838
93558396,步上財富能源控股股份有限公司,臺北市信義區松仁路97號17樓,115/04/15,121.568693,25.036078
93615565,億江國際有限公司,臺北市中山區南京東路2段140號6樓,115/04/15,121.533857,25.051829
94151297,沛宇餐飲有限公司,臺北市大安區忠孝東路4段216巷32弄4號,115/04/15,121.552746,25.039777
94166003,宸和生技有限公司,臺北市信義區忠孝東路5段1之2號5樓,115/04/15,121.564964,25.041298
96792114,宸旭投資有限公司,臺北市中山區建國北路3段92之1號7樓,115/04/15,121.534409,25.066393
97284019,開瓏實業有限公司,臺北市大安區安東街54之3號4樓,115/04/15,121.542805,25.042276
214230,法式澄淨股份有限公司,臺北市大安區光復南路676巷12號,115/04/16,121.556573,25.030674
24783926,花彘醺餐飲管理顧問有限公司,臺北市大安區忠孝東路4段170巷6弄16號,115/04/16,121.550065,25.040759
24972406,長軒顧問有限公司,臺北市中正區許昌街42之1號10樓,115/04/16,121.515624,25.045162
27525057,德冠醫藥生技有限公司,臺北市信義區基隆路1段155號5樓之9,115/04/16,121.565336,25.042216
52415867,醍醐實業有限公司,臺北市松山區光復北路95號3樓,115/04/16,121.558049,25.050813
52437428,三維實業有限公司,臺北市信義區基隆路1段149號3樓之7,115/04/16,121.56555,25.04256
55051116,己合廚櫃有限公司,臺北市大安區信義路3段157巷10弄4之1號,115/04/16,121.542511,25.034255
80523297,恆好管理工坊有限公司,臺北市南港區忠孝東路6段272號4樓,115/04/16,121.588907,25.049064
83190842,宸安日常有限公司,臺北市中山區南京東路1段34號7樓,115/04/16,121.523843,25.051985
84654735,耑承企業有限公司,臺北市文山區溪口街29號1樓,115/04/16,121.540305,24.99457
89116341,智拍科技股份有限公司,臺北市大安區敦化南路2段77號7樓之4,115/04/16,121.549317,25.030189
90244891,天翼數位國際有限公司,臺北市大安區敦化南路1段376號4樓,115/04/16,121.548441,25.033598
90442554,良石生活股份有限公司,臺北市大安區羅斯福路2段79號6樓之1,115/04/16,121.523315,25.026219
90616870,鑫銘鋼鐵股份有限公司,臺北市中正區重慶南路3段129號3樓,115/04/16,121.517007,25.023854
93615045,鑫揚有限公司,臺北市大同區重慶北路2段48號9樓之3,115/04/16,121.513904,25.055454
93740557,恆昇能源股份有限公司,臺北市松山區復興北路369號12樓,115/04/16,121.544773,25.062448
94187318,承絢資訊有限公司,臺北市北投區致遠一路2段9號,115/04/16,121.514322,25.110963
11834850,台華工業有限公司,臺北市松山區民權東路3段160巷19弄1號,115/04/17,121.547848,25.060372
22006507,新的眼鏡有限公司,臺北市信義區松山路484號︹之4︺1樓,115/04/17,121.577802,25.039107
23320167,哈樂實業有限公司,臺北市信義區和平東路3段285號7樓,115/04/17,121.555245,25.022068
42999188,宜通科技有限公司,臺北市內湖區文德路171巷3弄12號,115/04/17,121.584985,25.078987
50857991,宜豪工程有限公司,臺北市萬華區貴陽街2段201之1號5樓,115/04/17,121.499311,25.040188
50864000,以心文教事業有限公司,臺北市文山區景後街145號12樓,115/04/17,121.542181,24.990316
52705177,台灣帝瓦雷有限公司,臺北市信義區信義路4段415號12樓,115/04/17,121.559235,25.033304
53946012,原味湯廚有限公司,臺北市大安區敦化南路1段205號7樓之5,115/04/17,121.549259,25.042007
55832751,凱元實業有限公司,臺北市松山區民生東路5段165號11樓之6,115/04/17,121.564195,25.059222
60515647,鼎韻陞文創有限公司,臺北市大同區重慶北路2段197號11樓之1,115/04/17,121.513709,25.060452
82802491,格睿科技有限公司,臺北市中山區民生東路1段51號4樓之1,115/04/17,121.526242,25.058197
82810936,永流國際有限公司,臺北市松山區光復北路11巷85號,115/04/17,121.561698,25.05035
83243637,永崮建設股份有限公司,臺北市大安區安和路2段7號4樓,115/04/17,121.552632,25.032765
83364651,祥祿股份有限公司,臺北市中山區松江路485號1樓,115/04/17,121.533544,25.067198
83475185,櫟詩花藝有限公司,臺北市信義區基隆路2段149之49號11樓之9,115/04/17,121.555072,25.026382
90648009,美立信有限公司,臺北市中山區南京東路2段132號9樓之1,115/04/17,121.533659,25.051838
94203817,鑫玖工程有限公司,臺北市中正區臨沂街3巷11號,115/04/17,121.531526,25.043348
97549399,羽吉天下有限公司,臺北市內湖區內湖路1段437巷4弄4號1樓,115/04/17,121.572041,25.081779
126433,涵軒有限公司,臺北市大安區復興南路1段243號6樓,115/04/20,121.543885,25.037208
206077,註議有限公司,臺北市大安區信義路4段380號2樓,115/04/20,121.555888,25.032924
12955183,合振流通管理顧問有限公司,臺北市中山區松江路204巷2號5樓,115/04/20,121.532709,25.057386
23021203,承陽企業有限公司,臺北市內湖區新明路460巷4號3樓,115/04/20,121.578587,25.05369
29037701,原鼎管理顧問有限公司,臺北市松山區民權東路3段142號13樓,115/04/20,121.546856,25.061723
53563871,聯合麗通國際有限公司,臺北市中山區長安東路2段230號7樓之1,115/04/20,121.542809,25.048179
54277714,均士達科技有限公司,臺北市大安區和平東路1段145號5樓之1,115/04/20,121.530666,25.026619
55855590,星翔國際企業有限公司,臺北市士林區後港街96號7樓,115/04/20,121.5218,25.086205
80541577,動容軒寶石有限公司,臺北市內湖區成功路5段2號1樓,115/04/20,121.600846,25.084768
82887836,萬穎貿易有限公司,臺北市中正區重慶南路1段10號8樓之15,115/04/20,121.513136,25.046588
83562272,富楠企業有限公司,臺北市信義區信義路6段18號,115/04/20,121.575165,25.03384
83726768,萬德興業有限公司,臺北市大安區信義路4段1號2樓,115/04/20,121.543915,25.033566
83764896,萊菈通路有限公司,臺北市大安區復興南路1段243號6樓,115/04/20,121.543885,25.037208
90117728,綠鑽綠能股份有限公司,臺北市文山區木柵路2段57號4樓,115/04/20,121.560376,24.988876
90397299,科達實業有限公司,臺北市大同區西寧北路78之16號8樓,115/04/20,121.508688,25.05443
90770752,蓋亞伽耶能源有限公司,臺北市中山區復興北路156號2樓,115/04/20,121.543824,25.053229
93711928,圓芫有限公司,臺北市中山區長安東路2段108號8樓之7,115/04/20,121.53528,25.048317
86805,幫你買電商代購有限公司,臺北市萬華區長沙街2段11號5樓之11,115/04/21,121.506936,25.040707
155458,童里夢有限公司,臺北市中山區南京東路2段150號10樓,115/04/21,121.534199,25.051833
215364,品威丞有限公司,臺北市大同區南京西路103號3樓之8,115/04/21,121.51596,25.053816
13033736,正豪消防工程有限公司,臺北市士林區克強路10巷9弄17號4樓,115/04/21,121.523356,25.109376
13086965,瑞裕國際有限公司,臺北市信義區莊敬路450號2樓,115/04/21,121.567368,25.026828
24786579,李太白有限公司,臺北市南港區興南街63號,115/04/21,121.60048,25.055924
43945627,方程式國際企業有限公司,臺北市松山區八德路3段225號11樓之4,115/04/21,121.556997,25.048234
50774346,鴻景工程有限公司,臺北市北投區稻香路120號1樓,115/04/21,121.490193,25.14246
54331273,樸致資訊股份有限公司,臺北市大安區忠孝東路4段59號4樓之3,115/04/21,121.545806,25.041792
60677678,康和園有限公司,臺北市中山區松江路200號11樓之1,115/04/21,121.532884,25.057272
80306897,佛圓國際有限公司,臺北市信義區信義路5段5號5樓,115/04/21,121.56234,25.033152
82812147,傑筌國際有限公司,臺北市中正區仁愛路2段25號5樓,115/04/21,121.527305,25.038461
83081577,雲光台有限公司,臺北市南港區重陽路316號3樓之5,115/04/21,121.605708,25.057773
90100016,路由鏈股份有限公司,臺北市大安區信義路4段1號2樓,115/04/21,121.543915,25.033566
90230329,思康國際有限公司,臺北市信義區忠孝東路5段1之3號14樓,115/04/21,121.564905,25.041481
90390036,仙女星控股有限公司,臺北市中山區中山北路3段27號9樓之3,115/04/21,121.522464,25.065387
90602691,翰語廣告有限公司,臺北市信義區信義路4段415號14樓之1,115/04/21,121.559235,25.033304
95496950,華光文創有限公司,臺北市中山區松江路31號4樓,115/04/21,121.533156,25.047404
20767662,羅良企業有限公司,臺北市松山區南京東路4段197號10樓之3,115/04/22,121.55696,25.051758
24753129,眾與設計有限公司,臺北市中山區復興北路62號11樓之1,115/04/22,121.543786,25.050481
24940382,美景物業有限公司,臺北市大同區市民大道1段211號12樓之23,115/04/22,121.518412,25.049133
28621775,聯信保險代理人股份有限公司,臺北市信義區忠孝東路5段508號11樓,115/04/22,121.578755,25.041115
42838986,紅杉國際股份有限公司,臺北市大安區安和路1段11號8樓,115/04/22,121.54984,25.039667
50796427,郡尼士有限公司,臺北市南港區富康街1巷16弄30號4樓,115/04/22,121.617857,25.05326
52368870,邦為有限公司,臺北市大安區忠孝東路4段320號2樓,115/04/22,121.557056,25.041136
53124000,上登豐有限公司,臺北市中正區忠孝西路1段27號4樓,115/04/22,121.518853,25.04605
53748293,震基實業有限公司,臺北市文山區辛亥路4段101巷49號,115/04/22,121.560295,25.00702
53927269,登甲國際有限公司,臺北市信義區基隆路1段35巷7弄2之1號,115/04/22,121.57049,25.04784
60301413,梁氏智慧財產諮詢有限公司,臺北市中正區忠孝東路1段152號12樓之5,115/04/22,121.52592,25.04398
60469974,芯聯科技有限公司,臺北市中山區復興北路48號3樓,115/04/22,121.54376,25.049537
60703628,延平都更開發股份有限公司,臺北市中正區重慶南路1段57號4樓之13,115/04/22,121.51335,25.044671
83235539,台灣阿波羅生醫科技股份有限公司,臺北市大安區忠孝東路4段134號8樓,115/04/22,121.548244,25.041333
83474828,德樂室內裝修有限公司,臺北市信義區吳興街156巷22弄4號,115/04/22,121.560674,25.028668
85068775,米豆實業有限公司,臺北市大安區忠孝東路4段49巷4弄16號12樓之7,115/04/22,121.545678,25.042133
90099931,翌風創意行銷有限公司,臺北市中山區建國北路1段150號4樓,115/04/22,121.536351,25.051441
90104028,長湙有限公司,臺北市大安區信義路4段134號5樓,115/04/22,121.54977,25.033059
90349939,寅新清潔股份有限公司,臺北市內湖區新明路316號2樓,115/04/22,121.581799,25.055433
90380163,安電科技有限公司,臺北市中山區新生北路3段25巷38號1樓,115/04/22,121.529321,25.064343
95496332,劇風科技股份有限公司,臺北市松山區復興北路145號5樓,115/04/22,121.544293,25.053636
239112,星港娛樂股份有限公司,臺北市大安區忠孝東路4段221號12樓,115/04/23,121.552577,25.041661
4894277,詠銘實業有限公司,臺北市文山區永安街34號4樓,115/04/23,121.569929,24.986269
7139113,同和有限公司,臺北市大同區民族西路126之1號,115/04/23,121.516516,25.068453
16352711,徠特爾國際股份有限公司,臺北市大同區重慶北路3段313巷10之1號1樓,115/04/23,121.51465,25.074007
16789361,玖達禮儀禮品有限公司,臺北市大安區辛亥路3段157巷24弄23號1樓,115/04/23,121.550349,25.017305
28479138,大溪地健康廣場有限公司,臺北市中山區民權東路2段1號2樓,115/04/23,121.528108,25.062854
53932050,三泰國際貿易有限公司,臺北市中正區羅斯福路1段83巷2號4樓之2,115/04/23,121.519854,25.031403
54340385,非常弘準網資訊科技股份有限公司,臺北市松山區復興北路1號14樓之2,115/04/23,121.544158,25.047968
83001238,蜜威有限公司,臺北市大安區安和路1段29號15樓,115/04/23,121.550424,25.03913
83522146,醫文編輯有限公司,臺北市中正區重慶南路1段57號7之11,115/04/23,121.51335,25.044671
83978969,盈豐泰投資有限公司,臺北市信義區基隆路2段145號10樓,115/04/23,121.555742,25.026973
85089595,廣昀有限公司,臺北市中山區長安東路2段81號3樓之1,115/04/23,121.534499,25.04853
90815836,尹汎行銷國際有限公司,臺北市大同區哈密街107之1號1樓,115/04/23,121.514251,25.073039
93590641,可曜有限公司,臺北市中山區吉林路24號7樓之3,115/04/23,121.529954,25.051331
94016976,鑫瑄富投資股份有限公司,臺北市大安區忠孝東路4段233號6樓之11,115/04/23,121.553608,25.041654
94149912,塵上科技有限公司,臺北市中山區林森北路372號5樓,115/04/23,121.525394,25.057734
63964,毛來福有限公司,臺北市大同區承德路1段35號8樓之2,115/04/24,121.517315,25.051093
23036445,榮昇實業有限公司,臺北市內湖區內湖路2段352號8樓之5,115/04/24,121.590452,25.082007
24534639,圖怡創意股份有限公司,臺北市中正區忠孝東路1段76號12樓之1,115/04/24,121.523921,25.044467
24960507,日盛顧問有限公司,臺北市大安區忠孝東路4段222號3樓,115/04/24,121.553586,25.041212
28210365,相元鋼鐵有限公司,臺北市內湖區安康路139之1號1樓,115/04/24,121.60004,25.063136
55200306,鼎鼐實業有限公司,臺北市大安區忠孝東路4段222號3樓,115/04/24,121.553586,25.041212
60349541,陽東有限公司,臺北市大安區忠孝東路4段295號3樓,115/04/24,121.555065,25.041608
60703887,台灣昂帝億人力資源有限公司,臺北市中山區長春路366號3樓,115/04/24,121.542608,25.054472
60746632,策勢智庫數位傳媒有限公司,臺北市大安區仁愛路3段26號5樓,115/04/24,121.535746,25.037648
60760514,宜禾環淨有限公司,臺北市中山區松江路315號11樓,115/04/24,121.533413,25.061945
60784430,薩瓦迪卡有限公司,臺北市大同區重慶北路2段72號3樓,115/04/24,121.513696,25.056298
83764278,開心凱鑫有限公司,臺北市信義區松德路10號7樓,115/04/24,121.577417,25.039529
85041262,樂芙茵有限公司,臺北市士林區後港街139號,115/04/24,121.521674,25.086808
90435717,沅溙生物科技有限公司,臺北市大安區忠孝東路3段303號2樓之2,115/04/24,121.543304,25.042007
90551882,光立方科技股份有限公司,臺北市內湖區民權東路6段160號11樓之3,115/04/24,121.591874,25.068678
90815499,長人生有限公司,臺北市文山區興隆路1段70巷1號2樓,115/04/24,121.540657,25.003388
91114832,台灣弘海策略有限公司,臺北市內湖區成功路5段8號1樓,115/04/24,121.60117,25.08471
93722328,台灣棒果有限公司,臺北市信義區基隆路1段163號14樓之1,115/04/24,121.565226,25.041751
94093473,立亞致有限公司,臺北市萬華區康定路105號21樓之7,115/04/24,121.502022,25.039268
96754890,馬林梵多有限公司,臺北市士林區後港街96號7樓,115/04/24,121.5218,25.086205
20756969,永磁電子股份有限公司,臺北市南港區八德路4段768巷9號3樓,115/04/27,121.58064,25.049797
20989593,佑展實業有限公司,臺北市中山區民生東路2段26號1樓,115/04/27,121.528608,25.057852
23769735,欣和大旅社有限公司,臺北市大安區羅斯福路2段75之1號2、3、4、5、6樓,115/04/27,121.52319,25.026423
24489156,虢茂化工企業有限公司,臺北市中山區中山北路2段72巷6號4樓,115/04/27,121.522218,25.056971
24752613,晨椿企業股份有限公司,臺北市內湖區瑞光路607號4樓,115/04/27,121.56684,25.080183
24969319,澳彌尼有限公司,臺北市大安區信義路4段6號13樓之5,115/04/27,121.544127,25.033128
25137833,世佳租賃有限公司,臺北市大安區羅斯福路2段75之1號7、8、9樓,115/04/27,121.52319,25.026423
42639810,接上他的腿有限公司,臺北市士林區和豐街53號1樓,115/04/27,121.517174,25.082315
53760943,異想電影有限公司,臺北市中正區羅斯福路2段48巷3號,115/04/27,121.521311,25.027669
53945317,聯寶國際商業有限公司,臺北市大安區忠孝東路3段303號6樓,115/04/27,121.543304,25.042007
60714483,桃吉創意有限公司,臺北市中正區仁愛路2段25號5樓,115/04/27,121.527305,25.038461
60788978,萬祈有限公司,臺北市大安區敦化南路2段2號6樓之1,115/04/27,121.548437,25.033024
82798932,奧米特整合科技股份有限公司,臺北市大安區忠孝東路4段300號5樓,115/04/27,121.55628,25.041155
82878442,和森顧問諮詢股份有限公司,臺北市信義區基隆路1段176號5樓之1,115/04/27,121.565209,25.042814
83541256,君禹實業有限公司,臺北市松山區南京東路5段399號2樓之1,115/04/27,121.569669,25.051497
89167122,必如科技有限公司,臺北市中山區新生北路3段82巷26號3樓,115/04/27,121.52674,25.067025
89633154,殷商曼企業有限公司,臺北市大同區延平北路2段215號7樓,115/04/27,121.511495,25.059853
90138456,盈藝有限公司,臺北市中山區中山北路3段26號8樓,115/04/27,121.522037,25.065141
90230854,探吉文創有限公司,臺北市中山區松江路3號10樓,115/04/27,121.53313,25.046001
90834073,天保康股份有限公司,臺北市南港區經貿二路197號4樓,115/04/27,121.615564,25.060568
91047264,品翊資訊科技有限公司,臺北市中山區民權西路70號10樓之1,115/04/27,121.51985,25.062657
94105457,雍容國際有限公司,臺北市中山區建國北路3段92號7樓,115/04/27,121.534468,25.066683
94106625,好鉅科技有限公司,臺北市大安區信義路4段1號2樓,115/04/27,121.543915,25.033566
94181829,大福樂活空間有限公司,臺北市大同區民權西路136號13樓之11,115/04/27,121.516409,25.06275
96831138,中晴網通有限公司,臺北市中山區松江路328號8號,115/04/27,121.532968,25.060987
168799,高嶋屋台灣貿易有限公司,臺北市中山區南京東路3段201號9樓,115/04/28,121.54252,25.052091
234860,藏韻餐飲股份有限公司,臺北市大安區忠孝東路3段203號1樓,115/04/28,121.539098,25.041872
4477907,伍中交通汽車材料行有限公司,臺北市大同區太原路79巷19號1樓,115/04/28,121.516357,25.051759
12106801,輝耀機電工程股份有限公司,臺北市中山區遼寧街62巷7號1樓,115/04/28,121.541804,25.050521
14080335,開泰電器企業股份有限公司,臺北市松山區敦化南路1段102號2樓之5,115/04/28,121.548535,25.046106
23020540,華泰育樂事業股份有限公司,臺北市中山區林森北路369號1樓,115/04/28,121.525637,25.057746
24945746,音你而在有限公司,臺北市大同區塔城街39號10樓之1,115/04/28,121.510506,25.052416
52558409,信成開發股份有限公司,臺北市中山區復興北路58號12樓,115/04/28,121.543775,25.050142
60741783,鈞藏創意有限公司,臺北市大同區寧夏路23之1號2樓,115/04/28,121.515134,25.055166
83166081,臺灣愛謹科技有限公司,臺北市大安區和平東路1段75巷1號8樓,115/04/28,121.525122,25.027274
86296713,麒立實業有限公司,臺北市南港區南港路3段330巷1之1號1樓,115/04/28,121.580914,25.05179
90016974,君傑國際良品有限公司,臺北市內湖區金龍路178號1樓,115/04/28,121.588117,25.086563
90582604,八宇國際股份有限公司,臺北市信義區忠孝東路5段19號8樓,115/04/28,121.565668,25.041314
90648676,金耀雲新創科技股份有限公司,臺北市中正區杭州南路1段6巷22之1號1樓,115/04/28,121.525339,25.043589
90713084,水源路有限公司,臺北市中正區南昌路1段65號1樓,115/04/28,121.517452,25.031068
90718546,金字塔創富有限公司,臺北市松山區八德路4段600號2樓,115/04/28,121.572554,25.0498
90882193,動不停有限公司,臺北市中山區堤頂大道2段508號,115/04/28,121.560991,25.083269
94129866,全電科技工程有限公司,臺北市大同區南京西路41號10樓之1,115/04/28,121.519765,25.052924
97278425,文王科技有限公司,臺北市文山區忠順街2段51號3樓,115/04/28,121.564178,24.984988
84166,藍譽有限公司,臺北市松山區復興北路201號4樓,115/04/29,121.544334,25.055686
9481248,滿林企業有限公司,臺北市大安區四維路218號2樓,115/04/29,121.547826,25.025817
12944551,員福國際有限公司,臺北市中山區中山北路3段30號9樓之3,115/04/29,121.522035,25.065362
22432066,康閔股份有限公司,臺北市大安區敦化南路1段205號2樓之8,115/04/29,121.549259,25.042007
23442470,偉詩可有限公司,臺北市中山區復興北路436號4樓,115/04/29,121.544099,25.063621
23607325,鋐龍科技有限公司,臺北市士林區忠誠路1段36號3樓,115/04/29,121.526431,25.104457
23881929,畢麗安企業有限公司,臺北市信義區基隆路2段56號6樓之7,115/04/29,121.558342,25.031306
24318317,樺陽生化科技有限公司,臺北市大安區大安路1段65號10樓,115/04/29,121.546277,25.042535
24558131,聯珹電腦有限公司,臺北市士林區文林路338號4樓之1,115/04/29,121.525823,25.092753
28836945,騰升貿易有限公司,臺北市士林區重慶北路4段220巷23號,115/04/29,121.511747,25.085903
42993614,凱立咖啡有限公司,臺北市松山區南京東路5段399號2樓之1,115/04/29,121.569669,25.051497
50775801,長德投資開發有限公司,臺北市大安區敦化南路2段180號10樓,115/04/29,121.548312,25.023705
50893526,阿贊奴干沛有限公司,臺北市信義區基隆路2段135號2樓,115/04/29,121.555976,25.027177
55797537,雪喬股份有限公司,臺北市大安區羅斯福路3段193號9樓,115/04/29,121.528125,25.021042
60432772,梵澤國際有限公司,臺北市大安區忠孝東路4段231號10樓之2,115/04/29,121.553118,25.041644
60515512,財霈實業有限公司,臺北市松山區延吉街7之1號地下室,115/04/29,121.553494,25.047464
60607076,華倫資本股份有限公司,臺北市大同區承德路2段83之2號,115/04/29,121.51849,25.056183
60764574,樂蜜娛樂有限公司,臺北市內湖區內湖路1段115號3樓,115/04/29,121.562048,25.084223
70573971,丞市有限公司,臺北市北投區義理街11號1樓,115/04/29,121.515057,25.116247
80164898,台灣宏大科技股份有限公司,臺北市中山區松江路185號7樓之6,115/04/29,121.533317,25.05647
83448054,創遊科技有限公司,臺北市大安區忠孝東路4段300號5樓,115/04/29,121.55628,25.041155
83464217,初芯股份有限公司,臺北市中山區南京東路2段160號6樓,115/04/29,121.534396,25.051832
86720794,台灣威士盟大地工程顧問有限公司,臺北市中山區復興北路58號10樓,115/04/29,121.543775,25.050142
89940821,原版貿易股份有限公司,臺北市大同區重慶北路1段112號1樓,115/04/29,121.514005,25.053113
90244111,好白方式有限公司,臺北市大安區忠孝東路3段305號6樓之2,115/04/29,121.543542,25.041886
90664507,宜窩餐飲有限公司,臺北市信義區嘉興街8號,115/04/29,121.558673,25.032298
93776626,投木科技有限公司,臺北市中正區青島東路4號4樓之3,115/04/29,121.521383,25.043913
94079710,昇益昇有限公司,臺北市中正區忠孝東路1段49巷17號3樓,115/04/29,121.526208,25.044651
95449232,緻富國際有限公司,臺北市文山區萬利街41巷4號7樓之1,115/04/29,121.564983,25.000364
96771384,台灣壹叁有限公司,臺北市松山區南京東路4段19號2樓之2,115/04/29,121.550292,25.051931
97314793,全利水產有限公司,臺北市士林區通河西街2段116巷2號4樓,115/04/29,121.507171,25.092828
11104734,友智國際有限公司,臺北市北投區溫泉路65巷11之2號1樓,115/04/30,121.504012,25.135748
23157334,昌弘科技有限公司,臺北市大安區新生南路1段145巷7號1樓,115/04/30,121.53348,25.03583
24537495,維智不動產顧問有限公司,臺北市中正區汀洲路1段57號3樓,115/04/30,121.5091584,25.03102068
28701382,亞凡有限公司,臺北市內湖區成功路4段182巷6弄13號,115/04/30,121.593507,25.083838
29071664,宇肯空間設計有限公司,臺北市松山區光復南路55號2樓,115/04/30,121.557929,25.045991
42850067,富苑國際有限公司,臺北市信義區松隆路102號17樓之1,115/04/30,121.571031,25.045884
50761193,鴻高創業投資有限公司,臺北市內湖區洲子街79號2樓,115/04/30,121.571481,25.080159
52234275,旭庭有限公司,臺北市大安區復興南路2段13之1號,115/04/30,121.54379,25.032491
52254308,好感基因有限公司,臺北市松山區寶清街21號4樓之1,115/04/30,121.568934,25.050131
55102902,如霖國際有限公司,臺北市南港區重陽路218之2號5樓,115/04/30,121.603378,25.057283
60470374,洪興國際有限公司,臺北市中山區撫順街10之2號1樓,115/04/30,121.520991,25.063558
60783713,魔瓦科技有限公司,臺北市中正區羅斯福路2段14號2樓,115/04/30,121.520944,25.028739
82833451,金五吉翔有限公司,臺北市士林區通河東街1段166號2樓,115/04/30,121.515777,25.087914
82899988,米優國際企業有限公司,臺北市士林區延平北路6段155巷51號1樓,115/04/30,121.506045,25.08903
82960603,食事王朝管理顧問有限公司,臺北市中山區南京西路1之1號10樓,115/04/30,121.521814,25.052534
83235550,昱盛科技有限公司,臺北市信義區松高路9號25樓,115/04/30,121.565073,25.039514
83383025,巨山國際不動產有限公司,臺北市大安區忠孝東路4段221號12樓,115/04/30,121.552577,25.041661
85032480,鑫富凱有限公司,臺北市士林區承德路4段188號3樓,115/04/30,121.522335,25.087133
89137916,魔串有限公司,臺北市大安區通化街145號1樓,115/04/30,121.553923,25.028832
90544258,劦洤工程有限公司,臺北市松山區復興北路223號5樓,115/04/30,121.544462,25.056823
90690929,金牛國際實業有限公司,臺北市中山區民生東路1段25號3樓之3,115/04/30,121.524317,25.058199
91077317,費雷思有限公司,臺北市大安區大安路1段19巷19號1樓,115/04/30,121.547113,25.04453
91077766,女亭有限公司,臺北市信義區基隆路1段141號2樓,115/04/30,121.565843,25.042983
93521687,富璽教育有限公司,臺北市大安區忠孝東路4段169號11樓之4,115/04/30,121.550421,25.041705
93557452,沐醺有限公司,臺北市內湖區民權東路6段180巷6號5樓之9,115/04/30,121.592648,25.068196
93651175,南記行有限公司,臺北市內湖區內湖路1段387巷9號,115/04/30,121.570643,25.082975
94143121,探吉影業股份有限公司,臺北市內湖區民權東路6段47巷18弄8號,115/04/30,121.587363,25.070136
94174833,櫚創有限公司,臺北市大安區忠孝東路3段54號2樓之1,115/04/30,121.535562,25.041727
94266170,晶英欣業有限公司,臺北市大安區復興南路1段126巷1號2樓之24,115/04/30,121.543,25.04331
95450384,翊富整合行銷有限公司,臺北市中山區新生北路2段68巷15號8樓之3,115/04/30,121.526148,25.05649
97280153,麗生貿易有限公司,臺北市大同區重慶北路1段1號11樓之2,115/04/30,121.513699,25.049551
